{"data":{"markers":{"edges":[{"node":{"id":"10f484cc-a80b-5d6e-acad-fca06a9c6a11","color":"#069e5c","latlng":{"lat":25.0375198,"lng":121.5636796},"events":[{"id":"e21922e8-2f74-5c63-a7f3-6a2f37b3bbdc","name":"Agile Hsinchu 一月聚會: 人資與敏捷的親密接觸","location":"竹北市復興二路195號  / 竹北市復興二路195號 ","dateTime":"8 天內"},{"id":"ec37086e-bc3f-5409-bdee-a55ff97c3e10","name":"Agile Taipei 一月聚會: 團隊共創法 - 為什麼別人的敏捷經驗到我這都卡卡的？","location":"聖洋科技股份有限公司 / 106台北市大安區敦化南路二段2號16樓","dateTime":"12 天內"},{"id":"4feacdaa-0e04-5581-bbb2-376b9ffbd7dd","name":"SITCON 2019 個人小額贊助方案","location":"中央研究院人文社會科學館 國際會議廳  / 台北市南港區研究院路二段128號","dateTime":"3 個月內"},{"id":"22931013-fb36-5ad7-ab7e-bf90757b3698","name":"SITCON 2019 個人小額贊助方案-純粹贊助","location":"中央研究院人文社會科學館 國際會議廳  / 台北市南港區研究院路二段128號","dateTime":"3 個月內"}]}},{"node":{"id":"a55ac8dd-e644-5f33-a872-8fa8bf7ecb8b","color":"#990632","latlng":{"lat":22.9912348,"lng":120.184982},"events":[{"id":"88cb1335-2f84-5f42-8e58-c4dce113ac5e","name":"CCNS LAN party 2nd","location":"國立成功大學 勝利校區 第二學生活動中心 第二會議室  / 國立成功大學 勝利校區 第二學生活動中心 第二會議室 ","dateTime":"6 天內"}]}},{"node":{"id":"1fdcb750-051e-5961-9675-05c96cd7c1d8","color":"#0ba518","latlng":{"lat":24.787700653076172,"lng":120.9979019165039},"events":[{"id":"aef29f36-38fb-5fd3-aee8-b6f3667bb05e","name":"First Day with Python","location":"Rm CS105, NCTU Information Technology Service Center (計算機中心)","dateTime":"15 小時前"}]}},{"node":{"id":"74efe80c-7116-5aec-89af-babaf9600364","color":"#081777","latlng":{"lat":24.163162,"lng":120.6478282},"events":[{"id":"ce46500e-b3bc-56e6-9e03-457e870c5f05","name":"Julia’s Type System and Multiple Dispatch","location":"微程式科技--夢森林 / 台中市市政路402號7樓 (請於一樓換取感應卡後右側電梯上樓)","dateTime":"6 天內"},{"id":"910644b9-afcf-5e1d-9d2c-94763d820d23","name":"[ UX/UI 台中聚 一月活動 ] 情境驅動下的多模式互動體驗設計 @微型創業基地","location":"微型創業基地 / 台中市西區臺灣大道2段2號20F","dateTime":"7 天內"}]}},{"node":{"id":"e841f239-4623-5f68-9a59-761f940f4f38","color":"#099e8f","latlng":{"lat":25.081464767456055,"lng":121.56625366210938},"events":[{"id":"4425509d-33c2-5304-875c-57612a9f100e","name":"星際檔案系統 - IPFS 介紹","location":"管地有限公司 Gandi Asia Co. Ltd","dateTime":"11 天內"}]}},{"node":{"id":"2a4725b1-4f07-54d1-b058-f712d70cbb24","color":"#c9b90e","latlng":{"lat":25.038726806640625,"lng":121.5414047241211},"events":[{"id":"005fd4d0-cf88-5510-9ff1-af4403dd2d09","name":"MLDM Monday｜自駕車學走路 - 從 Donkey Car 蹣跚學步談起 [Part 2]","location":"社會創新實驗中心 (2樓A-5教室)","dateTime":"2 天內"},{"id":"27ab78a8-432d-5986-bf45-69f19ccebcf4","name":"MLDM Monday x Julia | Julia Tutorial IV","location":"社會創新實驗中心 (2樓A-5教室)","dateTime":"9 天內"}]}},{"node":{"id":"e3f91859-5a7d-5e85-ba25-ff8c924548ee","color":"#bc1c10","latlng":{"lat":25.04241943359375,"lng":121.51386260986328},"events":[{"id":"1e3cd309-2b6e-56d9-8d57-ab43bed3ff19","name":"Elixir台灣 台北 Meetup #","location":"五倍紅寶石","dateTime":"2 天內"}]}},{"node":{"id":"de6b119e-7ef6-588e-9a3e-e608ac76862e","color":"#bb04e0","latlng":{"lat":25.050273895263672,"lng":121.51934814453125},"events":[{"id":"2c2a9617-759e-5780-b510-ef7b8721706f","name":"HackingThursday 固定聚會","location":"波希米亞人咖啡館","dateTime":"5 天內"},{"id":"15be2df1-3aaf-5f9d-aa0c-31f8b5993f8b","name":"HackingThursday 固定聚會","location":"波希米亞人咖啡館","dateTime":"12 天內"}]}},{"node":{"id":"77708c7c-9943-5a86-87d6-15ce63bb63ed","color":"#991c06","latlng":{"lat":24.8066333,"lng":120.9686833},"events":[{"id":"8b9fe66b-cf18-57ed-b1b0-5981bca96554","name":"1/10 講者：陳冠旭(Zakk) , 題目：Glow使用心得","location":"TAB-Tea and Beverages / 新竹市大學路 78 號","dateTime":"5 天內"}]}}]}},"pageContext":{}}